{
    "schedules": [
        {
            "group_id": "6873ddd66cb5ee5798a8ee5a",
            "scheduled_activities": [
                {
                    "name": "코리아당구클럽",
                    "category": "당구장",
                    "start_time": "2025-07-13T16:23:34.643000",
                    "end_time": "2025-07-13T16:23:34.643000",
                    "location": {
                        "type": "Point",
                        "coordinates": [127.347, 36.362]
                    }
                },
                {
                    "name": "짱PC방 둔산점",
                    "category": "피시방",
                    "start_time": "2025-07-13T16:23:34.643000",
                    "end_time": "2025-07-13T16:23:34.643000",
                    "location": {
                        "type": "Point",
                        "coordinates": [127.381, 36.351]
                    }
                },
                {
                    "name": "충남대학교 정심화홀",
                    "category": "콘서트",
                    "start_time": "2025-07-13T16:23:34.643000",
                    "end_time": "2025-07-13T16:23:34.643000",
                    "location": {
                        "type": "Point",
                        "coordinates": [127.346, 36.369]
                    }
                }
            ]
        },
        {
            "group_id": "6873ddd66cb5ee5798a8ee5a",
            "scheduled_activities": [
                {
                    "name": "코리아당구클럽",
                    "category": "당구장",
                    "start_time": "2025-07-13T16:23:34.643000",
                    "end_time": "2025-07-13T16:23:34.643000",
                    "location": {
                        "type": "Point",
                        "coordinates": [127.347, 36.362]
                    }
                },
                {
                    "name": "라이또PC방 은행점",
                    "category": "피시방",
                    "start_time": "2025-07-13T16:23:34.643000",
                    "end_time": "2025-07-13T16:23:34.643000",
                    "location": {
                        "type": "Point",
                        "coordinates": [127.427, 36.329]
                    }
                },
                {
                    "name": "충남대학교 정심화홀",
                    "category": "콘서트",
                    "start_time": "2025-07-13T16:23:34.643000",
                    "end_time": "2025-07-13T16:23:34.643000",
                    "location": {
                        "type": "Point",
                        "coordinates": [127.346, 36.369]
                    }
                }
            ]
        },
        {
            "group_id": "6873ddd66cb5ee5798a8ee5a",
            "scheduled_activities": [
                {
                    "name": "대전시립연정국악원",
                    "category": "콘서트",
                    "start_time": "2025-07-13T16:23:34.643000",
                    "end_time": "2025-07-13T16:23:34.643000",
                    "location": {
                        "type": "Point",
                        "coordinates": [127.388, 36.371]
                    }
                },
                {
                    "name": "코리아당구클럽",
                    "category": "당구장",
                    "start_time": "2025-07-13T16:23:34.643000",
                    "end_time": "2025-07-13T16:23:34.643000",
                    "location": {
                        "type": "Point",
                        "coordinates": [127.347, 36.362]
                    }
                },
                {
                    "name": "짱PC방 둔산점",
                    "category": "피시방",
                    "start_time": "2025-07-13T16:23:34.643000",
                    "end_time": "2025-07-13T16:23:34.643000",
                    "location": {
                        "type": "Point",
                        "coordinates": [127.381, 36.351]
                    }
                }
            ]
        },
        {
            "group_id": "6873ddd66cb5ee5798a8ee5a",
            "scheduled_activities": [
                {
                    "name": "대전시립연정국악원",
                    "category": "콘서트",
                    "start_time": "2025-07-13T16:23:34.643000",
                    "end_time": "2025-07-13T16:23:34.643000",
                    "location": {
                        "type": "Point",
                        "coordinates": [127.388, 36.371]
                    }
                },
                {
                    "name": "코리아당구클럽",
                    "category": "당구장",
                    "start_time": "2025-07-13T16:23:34.643000",
                    "end_time": "2025-07-13T16:23:34.643000",
                    "location": {
                        "type": "Point",
                        "coordinates": [127.347, 36.362]
                    }
                },
                {
                    "name": "라이또PC방 은행점",
                    "category": "피시방",
                    "start_time": "2025-07-13T16:23:34.643000",
                    "end_time": "2025-07-13T16:23:34.643000",
                    "location": {
                        "type": "Point",
                        "coordinates": [127.427, 36.329]
                    }
                }
            ]
        }
    ]
}
